[
	{
		"location": {
			"lat": 63.5222074,
			"lng": 22.5351597
		},
		"name": "bankgatan",
		"postcode": "66900"
	},
	{
		"location": {
			"lat": 63.52178359999999,
			"lng": 22.5301266
		},
		"name": "sollefteågatan",
		"postcode": "66900"
	},
	{
		"location": {
			"lat": 63.5227547,
			"lng": 22.5419863
		},
		"name": "borgaregatan 34",
		"postcode": "66900"
	},
	{
		"location": {
			"lat": 63.5234563,
			"lng": 22.5335698
		},
		"name": "gustav adolfsgatan",
		"postcode": "66900"
	},
	{
		"location": {
			"lat": 63.5232479,
			"lng": 22.5356973
		},
		"name": "karleborgsgatan",
		"postcode": "66900"
	},
	{
		"location": {
			"lat": 63.5232479,
			"lng": 22.5356973
		},
		"name": "borgaregatan",
		"postcode": "66900"
	},
	{
		"location": {
			"lat": 63.5058416,
			"lng": 22.5287879
		},
		"name": "juthasvägen",
		"postcode": "66900"
	},
	{
		"location": {
			"lat": 63.5196402,
			"lng": 22.5392551
		},
		"name": "bangatan",
		"postcode": "66900"
	},
	{
		"location": {
			"lat": 63.5216242,
			"lng": 22.5400655
		},
		"name": "bockmöllergatan",
		"postcode": "66900"
	},
	{
		"location": {
			"lat": 63.52292689999999,
			"lng": 22.5276398
		},
		"name": "kyrkogatan",
		"postcode": "66900"
	},
	{
		"location": {
			"lat": 63.5242987,
			"lng": 22.536147
		},
		"name": "lybecksgatan",
		"postcode": "66900"
	},
	{
		"location": {
			"lat": 63.52501299999999,
			"lng": 22.5386757
		},
		"name": "källbackgatan",
		"postcode": "66900"
	},
	{
		"location": {
			"lat": 63.5171249,
			"lng": 22.5341641
		},
		"name": "jeansborgsvägen",
		"postcode": "66900"
	},
	{
		"location": {
			"lat": 63.5261522,
			"lng": 22.5248821
		},
		"name": "seminariegatan",
		"postcode": "66900"
	},
	{
		"location": {
			"lat": 63.5191834,
			"lng": 22.5378136
		},
		"name": "kolonivägen",
		"postcode": "66900"
	},
	{
		"location": {
			"lat": 63.5216187,
			"lng": 22.540861
		},
		"name": "bankgatan 32",
		"postcode": "66900"
	},
	{
		"location": {
			"lat": 63.5220274,
			"lng": 22.5268653
		},
		"name": "sollefteågatan 3",
		"postcode": "66900"
	},
	{
		"location": {
			"lat": 63.5408541,
			"lng": 22.5064349
		},
		"name": "bådasvängen",
		"postcode": "66900"
	},
	{
		"location": {
			"lat": 63.5319811,
			"lng": 22.5272084
		},
		"name": "högbackavägen",
		"postcode": "66900"
	},
	{
		"location": {
			"lat": 63.5230674,
			"lng": 22.5377496
		},
		"name": "mathesiusgatan",
		"postcode": "66900"
	},
	{
		"location": {
			"lat": 63.5229781,
			"lng": 22.5281705
		},
		"name": "bankgatan 4",
		"postcode": "66900"
	},
	{
		"location": {
			"lat": 63.5217189,
			"lng": 22.5423119
		},
		"name": "spången",
		"postcode": "66900"
	},
	{
		"location": {
			"lat": 63.523653,
			"lng": 22.531456
		},
		"name": "topeliusesplanaden",
		"postcode": "66900"
	},
	{
		"location": {
			"lat": 63.4212643,
			"lng": 22.2708092
		},
		"name": "sjövägen",
		"postcode": "66970"
	},
	{
		"location": {
			"lat": 63.5219692,
			"lng": 22.4894431
		},
		"name": "andrasjövägen",
		"postcode": "66900"
	},
	{
		"location": {
			"lat": 63.52271229999999,
			"lng": 22.5290719
		},
		"name": "bankgatan 3",
		"postcode": "66900"
	},
	{
		"location": {
			"lat": 63.523466,
			"lng": 22.5307663
		},
		"name": "topeliusesplanaden 12",
		"postcode": "66900"
	},
	{
		"location": {
			"lat": 63.5227604,
			"lng": 22.531258
		},
		"name": "topeliusesplanaden 11",
		"postcode": "66900"
	},
	{
		"location": {
			"lat": 63.5238844,
			"lng": 22.5239311
		},
		"name": "seminariegatan 5",
		"postcode": "66900"
	},
	{
		"location": {
			"lat": 63.5236124,
			"lng": 22.52193
		},
		"name": "bergstigen",
		"postcode": "66900"
	},
	{
		"location": {
			"lat": 63.52817249999999,
			"lng": 22.6088869
		},
		"name": "kovjokivägen",
		"postcode": "66900"
	},
	{
		"location": {
			"lat": 63.52142079999999,
			"lng": 22.5172635
		},
		"name": "tvärgatan",
		"postcode": "66900"
	},
	{
		"location": {
			"lat": 63.52254449999999,
			"lng": 22.5185687
		},
		"name": "badhusstigen",
		"postcode": "66900"
	},
	{
		"location": {
			"lat": 63.5236019,
			"lng": 22.5330942
		},
		"name": "borgaregatan 10",
		"postcode": "66900"
	},
	{
		"location": {
			"lat": 63.5661983,
			"lng": 22.5711643
		},
		"name": "jakobstadsvägen",
		"postcode": "66910"
	},
	{
		"location": {
			"lat": 63.5580228,
			"lng": 22.5428763
		},
		"name": "åminnevägen",
		"postcode": "66910"
	},
	{
		"location": {
			"lat": 63.52269310000001,
			"lng": 22.5509382
		},
		"name": "arbetaregatan",
		"postcode": "66900"
	},
	{
		"location": {
			"lat": 63.52311030000001,
			"lng": 22.5190879
		},
		"name": "berggränd",
		"postcode": "66900"
	},
	{
		"location": {
			"lat": 63.51784699999999,
			"lng": 22.5129881
		},
		"name": "bollgränd",
		"postcode": "66900"
	},
	{
		"location": {
			"lat": 63.5142237,
			"lng": 22.5279849
		},
		"name": "buskåkersgränd",
		"postcode": "66900"
	},
	{
		"location": {
			"lat": 63.5426727,
			"lng": 22.5371728
		},
		"name": "conradigatan",
		"postcode": "66900"
	},
	{
		"location": {
			"lat": 63.5171357,
			"lng": 22.5118658
		},
		"name": "diskusgränd",
		"postcode": "66900"
	},
	{
		"location": {
			"lat": 63.5270731,
			"lng": 22.5457636
		},
		"name": "fabriksgatan",
		"postcode": "66900"
	},
	{
		"location": {
			"lat": 63.52688,
			"lng": 22.5351826
		},
		"name": "fiskaregränd",
		"postcode": "66900"
	},
	{
		"location": {
			"lat": 63.53403429999999,
			"lng": 22.5376836
		},
		"name": "fogdegränd",
		"postcode": "66900"
	},
	{
		"location": {
			"lat": 63.51791670000001,
			"lng": 22.5470782
		},
		"name": "frihemsvägen",
		"postcode": "66900"
	},
	{
		"location": {
			"lat": 63.5291159,
			"lng": 22.5510306
		},
		"name": "frillmossavägen",
		"postcode": "66900"
	},
	{
		"location": {
			"lat": 63.51931990000001,
			"lng": 22.5459186
		},
		"name": "furugränd",
		"postcode": "66900"
	},
	{
		"location": {
			"lat": 63.5340266,
			"lng": 22.5353424
		},
		"name": "fältskärsgatan",
		"postcode": "66900"
	},
	{
		"location": {
			"lat": 63.5187174,
			"lng": 22.5255838
		},
		"name": "färgaregatan",
		"postcode": "66900"
	},
	{
		"location": {
			"lat": 63.5217598,
			"lng": 22.5303558
		},
		"name": "färgaregränd",
		"postcode": "66900"
	},
	{
		"location": {
			"lat": 63.51854660000001,
			"lng": 22.5447849
		},
		"name": "grangränd",
		"postcode": "66900"
	},
	{
		"location": {
			"lat": 63.51838309999999,
			"lng": 22.5441992
		},
		"name": "granvägen",
		"postcode": "66900"
	},
	{
		"location": {
			"lat": 63.5190642,
			"lng": 22.5314312
		},
		"name": "gustav adolfsgränd",
		"postcode": "66900"
	},
	{
		"location": {
			"lat": 63.5180894,
			"lng": 22.5365936
		},
		"name": "hagagatan",
		"postcode": "66900"
	},
	{
		"location": {
			"lat": 63.5230736,
			"lng": 22.5525164
		},
		"name": "hantverkaregatan",
		"postcode": "66900"
	},
	{
		"location": {
			"lat": 63.5217598,
			"lng": 22.5303558
		},
		"name": "hantverkaregränd",
		"postcode": "66900"
	},
	{
		"location": {
			"lat": 63.5253775,
			"lng": 22.5167411
		},
		"name": "hjortrongränd",
		"postcode": "66900"
	},
	{
		"location": {
			"lat": 63.5205716,
			"lng": 22.5174409
		},
		"name": "idrottsgatan",
		"postcode": "66900"
	},
	{
		"location": {
			"lat": 63.5199909,
			"lng": 22.5146671
		},
		"name": "idrottsgränd",
		"postcode": "66900"
	},
	{
		"location": {
			"lat": 63.5661983,
			"lng": 22.5711643
		},
		"name": "jakobstadsvägen",
		"postcode": "66910"
	},
	{
		"location": {
			"lat": 63.517699,
			"lng": 22.5263233
		},
		"name": "joupersgatan",
		"postcode": "66900"
	},
	{
		"location": {
			"lat": 63.5287676,
			"lng": 22.5356601
		},
		"name": "jöns drakes väg",
		"postcode": "66900"
	},
	{
		"location": {
			"lat": 63.5195771,
			"lng": 22.5422207
		},
		"name": "karl grönforsväg",
		"postcode": "66900"
	},
	{
		"location": {
			"lat": 63.52110449999999,
			"lng": 22.5382849
		},
		"name": "karlmansgatan",
		"postcode": "66900"
	},
	{
		"location": {
			"lat": 63.51818359999999,
			"lng": 22.5337715
		},
		"name": "klockaregränd",
		"postcode": "66900"
	},
	{
		"location": {
			"lat": 63.5226926,
			"lng": 22.5472926
		},
		"name": "kvarnvägen",
		"postcode": "66900"
	},
	{
		"location": {
			"lat": 63.5244005,
			"lng": 22.5150667
		},
		"name": "lingongränd",
		"postcode": "66900"
	},
	{
		"location": {
			"lat": 63.52171489999999,
			"lng": 22.5162474
		},
		"name": "lundagatan",
		"postcode": "66900"
	},
	{
		"location": {
			"lat": 63.5256472,
			"lng": 22.5228374
		},
		"name": "mellangatan",
		"postcode": "66900"
	},
	{
		"location": {
			"lat": 63.514881,
			"lng": 22.5096763
		},
		"name": "munsalavägen",
		"postcode": "66900"
	},
	{
		"location": {
			"lat": 63.5217598,
			"lng": 22.5303558
		},
		"name": "norrskenet",
		"postcode": "66900"
	},
	{
		"location": {
			"lat": 63.52916509999999,
			"lng": 22.5210858
		},
		"name": "nybackagatan",
		"postcode": "66900"
	},
	{
		"location": {
			"lat": 63.5204306,
			"lng": 22.5276199
		},
		"name": "nygårdsgränd",
		"postcode": "66900"
	},
	{
		"location": {
			"lat": 63.5194967,
			"lng": 22.5270853
		},
		"name": "nygårdsvägen",
		"postcode": "66900"
	},
	{
		"location": {
			"lat": 63.529988,
			"lng": 22.5194706
		},
		"name": "patmosgatan",
		"postcode": "66900"
	},
	{
		"location": {
			"lat": 63.5180089,
			"lng": 22.5318215
		},
		"name": "prästgårdsgränd",
		"postcode": "66900"
	},
	{
		"location": {
			"lat": 63.5329542,
			"lng": 22.5446337
		},
		"name": "pälsvägen",
		"postcode": "66900"
	},
	{
		"location": {
			"lat": 63.5149339,
			"lng": 22.5313058
		},
		"name": "rajåkersvägen",
		"postcode": "66900"
	},
	{
		"location": {
			"lat": 63.5194364,
			"lng": 22.5056109
		},
		"name": "regnbågen",
		"postcode": "66900"
	},
	{
		"location": {
			"lat": 63.5231827,
			"lng": 22.5147169
		},
		"name": "remalskroken",
		"postcode": "66900"
	},
	{
		"location": {
			"lat": 63.525761,
			"lng": 22.5216271
		},
		"name": "residensgatan",
		"postcode": "66900"
	},
	{
		"location": {
			"lat": 63.52065889999999,
			"lng": 22.547444
		},
		"name": "sandvägen",
		"postcode": "66900"
	},
	{
		"location": {
			"lat": 63.5173956,
			"lng": 22.5345789
		},
		"name": "sexmansgränd",
		"postcode": "66900"
	},
	{
		"location": {
			"lat": 63.5230506,
			"lng": 22.5392948
		},
		"name": "skeppsgatan",
		"postcode": "66900"
	},
	{
		"location": {
			"lat": 63.5239834,
			"lng": 22.5165899
		},
		"name": "skogsgatan",
		"postcode": "66900"
	},
	{
		"location": {
			"lat": 63.529766,
			"lng": 22.5223752
		},
		"name": "smedsbackavägen",
		"postcode": "66900"
	},
	{
		"location": {
			"lat": 63.5279455,
			"lng": 22.5215628
		},
		"name": "smedsgränd",
		"postcode": "66900"
	},
	{
		"location": {
			"lat": 63.5221321,
			"lng": 22.5201394
		},
		"name": "staketgatan",
		"postcode": "66900"
	},
	{
		"location": {
			"lat": 63.5165982,
			"lng": 22.5095269
		},
		"name": "stenbackagatan",
		"postcode": "66900"
	},
	{
		"location": {
			"lat": 63.5187588,
			"lng": 22.4975108
		},
		"name": "stjärnfallet",
		"postcode": "66900"
	},
	{
		"location": {
			"lat": 63.5202127,
			"lng": 22.5445576
		},
		"name": "tallvägen",
		"postcode": "66900"
	},
	{
		"location": {
			"lat": 63.5217598,
			"lng": 22.5303558
		},
		"name": "trädgårdsmästaregränd",
		"postcode": "66900"
	},
	{
		"location": {
			"lat": 63.516868,
			"lng": 22.5152729
		},
		"name": "värnamogatan",
		"postcode": "66900"
	},
	{
		"location": {
			"lat": 63.5178093,
			"lng": 22.5167583
		},
		"name": "värnamogränd",
		"postcode": "66900"
	},
	{
		"location": {
			"lat": 63.52898070000001,
			"lng": 22.5233536
		},
		"name": "västanlid",
		"postcode": "66900"
	},
	{
		"location": {
			"lat": 63.5580228,
			"lng": 22.5428763
		},
		"name": "åminnevägen",
		"postcode": "66910"
	},
	{
		"location": {
			"lat": 63.5217598,
			"lng": 22.5303558
		},
		"name": "älvgränd",
		"postcode": "66900"
	},
	{
		"location": {
			"lat": 63.52071429999999,
			"lng": 22.5411701
		},
		"name": "östanlid",
		"postcode": "66900"
	},
	{
		"location": {
			"lat": 63.47834529999999,
			"lng": 22.5318815
		},
		"name": "östra åvägen",
		"postcode": "66900"
	},
	{
		"location": {
			"lat": 63.42222559999999,
			"lng": 22.6048085
		},
		"name": "jeppovägen",
		"postcode": "66840"
	},
	{
		"location": {
			"lat": 63.53510869999999,
			"lng": 22.4834078
		},
		"name": "andrasjö strandväg",
		"postcode": "66900"
	},
	{
		"location": {
			"lat": 63.50741889999999,
			"lng": 22.4570607
		},
		"name": "bonäsvägen",
		"postcode": "66900"
	},
	{
		"location": {
			"lat": 63.47623389999999,
			"lng": 22.5288015
		},
		"name": "ytterjeppovägen",
		"postcode": "66900"
	},
	{
		"location": {
			"lat": 63.5239627,
			"lng": 22.5339941
		},
		"name": "gustav adolfsgatan 25",
		"postcode": "66900"
	},
	{
		"location": {
			"lat": 63.52503599999999,
			"lng": 22.5245136
		},
		"name": "seminariegatan 13",
		"postcode": "66900"
	},
	{
		"location": {
			"lat": 63.52305989999999,
			"lng": 22.5271176
		},
		"name": "bankgatan 2",
		"postcode": "66900"
	},
	{
		"location": {
			"lat": 63.52522889999999,
			"lng": 22.5354757
		},
		"name": "källbackgatan 3",
		"postcode": "66900"
	},
	{
		"location": {
			"lat": 63.5680681,
			"lng": 22.569299
		},
		"name": "nyvägen",
		"postcode": "66910"
	},
	{
		"location": {
			"lat": 63.5273855,
			"lng": 22.5332862
		},
		"name": "jakobstadsvägen 3",
		"postcode": "66910"
	},
	{
		"location": {
			"lat": 63.5231213,
			"lng": 22.5381563
		},
		"name": "borgaregatan 24",
		"postcode": "66900"
	},
	{
		"location": {
			"lat": 63.52572929999999,
			"lng": 22.5390237
		},
		"name": "grev tott gatan",
		"postcode": "66900"
	},
	{
		"location": {
			"lat": 63.5273855,
			"lng": 22.5332862
		},
		"name": "jakobstadsvägen 3",
		"postcode": "66910"
	},
	{
		"location": {
			"lat": 63.5220156,
			"lng": 22.523206
		},
		"name": "juthasvägen 3",
		"postcode": "66900"
	},
	{
		"location": {
			"lat": 63.5248934,
			"lng": 22.5289806
		},
		"name": "kyrkogatan 45",
		"postcode": "66900"
	},
	{
		"location": {
			"lat": 63.522848,
			"lng": 22.520833
		},
		"name": "staketgatan 6",
		"postcode": "66900"
	},
	{
		"location": {
			"lat": 63.61204689999999,
			"lng": 22.4921221
		},
		"name": "grisselören",
		"postcode": "66910"
	},
	{
		"location": {
			"lat": 63.52261249999999,
			"lng": 22.5324447
		},
		"name": "bankgatan 12",
		"postcode": "66900"
	},
	{
		"location": {
			"lat": 63.5224808,
			"lng": 22.5312825
		},
		"name": "bankgatan 7",
		"postcode": "66900"
	},
	{
		"location": {
			"lat": 63.522142,
			"lng": 22.5347622
		},
		"name": "bankgatan 17",
		"postcode": "66900"
	},
	{
		"location": {
			"lat": 63.521167,
			"lng": 22.5180257
		},
		"name": "tvärgatan 4",
		"postcode": "66900"
	},
	{
		"location": {
			"lat": 63.52474589999999,
			"lng": 22.524375
		},
		"name": "seminariegatan 11",
		"postcode": "66900"
	},
	{
		"location": {
			"lat": 63.45341730000001,
			"lng": 22.439068
		},
		"name": "viksgatan",
		"postcode": "66950"
	},
	{
		"location": {
			"lat": 63.52252730000001,
			"lng": 22.5272383
		},
		"name": "kyrkogatan 6",
		"postcode": "66900"
	},
	{
		"location": {
			"lat": 63.521946,
			"lng": 22.5308876
		},
		"name": "topeliusesplanaden 7",
		"postcode": "66900"
	},
	{
		"location": {
			"lat": 63.52143030000001,
			"lng": 22.5220712
		},
		"name": "badhusstigen 1",
		"postcode": "66900"
	},
	{
		"location": {
			"lat": 63.5263082,
			"lng": 22.5350963
		},
		"name": "gustav adolfsgatan 39",
		"postcode": "66900"
	},
	{
		"location": {
			"lat": 63.5234924,
			"lng": 22.5277094
		},
		"name": "kyrkogatan 10",
		"postcode": "66900"
	},
	{
		"location": {
			"lat": 63.52476779999999,
			"lng": 22.5305087
		},
		"name": "lybecksgatan 5",
		"postcode": "66900"
	},
	{
		"location": {
			"lat": 63.52532549999999,
			"lng": 22.5246437
		},
		"name": "seminariegatan 15",
		"postcode": "66900"
	},
	{
		"location": {
			"lat": 63.5213696,
			"lng": 22.5333763
		},
		"name": "sollefteågatan 17",
		"postcode": "66900"
	},
	{
		"location": {
			"lat": 63.5201857,
			"lng": 22.5292272
		},
		"name": "topeliusesplanaden 2",
		"postcode": "66900"
	},
	{
		"location": {
			"lat": 63.5228929,
			"lng": 22.5293227
		},
		"name": "bankgatan 6",
		"postcode": "66900"
	},
	{
		"location": {
			"lat": 63.5227979,
			"lng": 22.5301319
		},
		"name": "bankgatan 8",
		"postcode": "66900"
	},
	{
		"location": {
			"lat": 63.43859659999999,
			"lng": 22.4569775
		},
		"name": "genvägen",
		"postcode": "66950"
	},
	{
		"location": {
			"lat": 63.5217598,
			"lng": 22.5303558
		},
		"name": "genvägen 2",
		"postcode": "66950"
	},
	{
		"location": {
			"lat": 63.4540966,
			"lng": 22.4349285
		},
		"name": "kyrkbacken",
		"postcode": "66950"
	},
	{
		"location": {
			"lat": 63.52377,
			"lng": 22.5295899
		},
		"name": "borgaregatan 3",
		"postcode": "66900"
	},
	{
		"location": {
			"lat": 63.52346979999999,
			"lng": 22.5315985
		},
		"name": "topeliusesplanaden 15",
		"postcode": "66900"
	},
	{
		"location": {
			"lat": 63.5214526,
			"lng": 22.5266442
		},
		"name": "kyrkogatan 2",
		"postcode": "66900"
	},
	{
		"location": {
			"lat": 63.5225109,
			"lng": 22.5333217
		},
		"name": "gustav adolfsgatan 15",
		"postcode": "66900"
	},
	{
		"location": {
			"lat": 63.5229453,
			"lng": 22.5305088
		},
		"name": "topeliusesplanaden 10",
		"postcode": "66900"
	},
	{
		"location": {
			"lat": 63.5270275,
			"lng": 22.5350226
		},
		"name": "gustav adolfsgatan 44",
		"postcode": "66900"
	},
	{
		"location": {
			"lat": 63.52047639999999,
			"lng": 22.5313053
		},
		"name": "bangatan 9",
		"postcode": "66900"
	},
	{
		"location": {
			"lat": 63.52241189999999,
			"lng": 22.5319796
		},
		"name": "bankgatan 9",
		"postcode": "66900"
	},
	{
		"location": {
			"lat": 63.5244088,
			"lng": 22.5381807
		},
		"name": "mathesiusgatan 22",
		"postcode": "66900"
	},
	{
		"location": {
			"lat": 63.5233372,
			"lng": 22.5233676
		},
		"name": "seminariegatan 10",
		"postcode": "66900"
	},
	{
		"location": {
			"lat": 63.5238429,
			"lng": 22.5306499
		},
		"name": "borgaregatan 6",
		"postcode": "66900"
	},
	{
		"location": {
			"lat": 63.52142790000001,
			"lng": 22.5323524
		},
		"name": "gustav adolfsgatan 12",
		"postcode": "66900"
	},
	{
		"location": {
			"lat": 63.52311510000001,
			"lng": 22.5314284
		},
		"name": "topeliusesplanaden 13",
		"postcode": "66900"
	},
	{
		"location": {
			"lat": 63.52499289999999,
			"lng": 22.5329
		},
		"name": "topeliusesplanaden 29",
		"postcode": "66900"
	},
	{
		"location": {
			"lat": 63.52411970000001,
			"lng": 22.5236337
		},
		"name": "seminariegatan 16",
		"postcode": "66900"
	},
	{
		"location": {
			"lat": 63.5222247,
			"lng": 22.5357795
		},
		"name": "bankgatan 20",
		"postcode": "66900"
	},
	{
		"location": {
			"lat": 63.52083339999999,
			"lng": 22.5282273
		},
		"name": "bangatan 3",
		"postcode": "66900"
	},
	{
		"location": {
			"lat": 63.5206438,
			"lng": 22.5323761
		},
		"name": "gustav adolfsgatan 5",
		"postcode": "66900"
	},
	{
		"location": {
			"lat": 63.5249153,
			"lng": 22.5291085
		},
		"name": "lybecksgatan 1",
		"postcode": "66900"
	},
	{
		"location": {
			"lat": 63.52361929999999,
			"lng": 22.5338431
		},
		"name": "gustav adolfsgatan 23",
		"postcode": "66900"
	},
	{
		"location": {
			"lat": 63.620551,
			"lng": 22.5098373
		},
		"name": "vedören",
		"postcode": "66910"
	},
	{
		"location": {
			"lat": 63.5855463,
			"lng": 22.5401866
		},
		"name": "socklotvägen",
		"postcode": "66910"
	},
	{
		"location": {
			"lat": 63.52488229999999,
			"lng": 22.5323009
		},
		"name": "topeliusesplanaden 23",
		"postcode": "66900"
	},
	{
		"location": {
			"lat": 63.52497169999999,
			"lng": 22.5340416
		},
		"name": "gustav adolfsgatan 30",
		"postcode": "66900"
	},
	{
		"location": {
			"lat": 63.5049511,
			"lng": 22.5383896
		},
		"name": "broasvägen",
		"postcode": "66900"
	},
	{
		"location": {
			"lat": 63.53284499999999,
			"lng": 22.5418171
		},
		"name": "frillmossavägen 1",
		"postcode": "66900"
	},
	{
		"location": {
			"lat": 63.5243061,
			"lng": 22.5341452
		},
		"name": "gustav adolfsgatan 27",
		"postcode": "66900"
	},
	{
		"location": {
			"lat": 63.5219433,
			"lng": 22.5276773
		},
		"name": "sollefteågatan 5",
		"postcode": "66900"
	},
	{
		"location": {
			"lat": 63.52150609999999,
			"lng": 22.5403725
		},
		"name": "bankgatan 33",
		"postcode": "66900"
	},
	{
		"location": {
			"lat": 63.5202442,
			"lng": 22.5336526
		},
		"name": "bangatan 15",
		"postcode": "66900"
	},
	{
		"location": {
			"lat": 63.5236646,
			"lng": 22.5193957
		},
		"name": "berggränd 5",
		"postcode": "66900"
	},
	{
		"location": {
			"lat": 63.5234998,
			"lng": 22.5341503
		},
		"name": "borgaregatan 12",
		"postcode": "66900"
	},
	{
		"location": {
			"lat": 63.5230514,
			"lng": 22.5388905
		},
		"name": "borgaregatan 26",
		"postcode": "66900"
	},
	{
		"location": {
			"lat": 63.5222758,
			"lng": 22.5333665
		},
		"name": "bankgatan 13",
		"postcode": "66900"
	},
	{
		"location": {
			"lat": 63.5216647,
			"lng": 22.5227969
		},
		"name": "juthasvägen 5",
		"postcode": "66900"
	},
	{
		"location": {
			"lat": 63.52667,
			"lng": 22.5352688
		},
		"name": "gustav adolfsgatan 41",
		"postcode": "66900"
	},
	{
		"location": {
			"lat": 63.52272370000001,
			"lng": 22.5318378
		},
		"name": "bankgatan 10",
		"postcode": "66900"
	},
	{
		"location": {
			"lat": 63.3405852,
			"lng": 22.5765052
		},
		"name": "aspnäsvägen",
		"postcode": "66840"
	},
	{
		"location": {
			"lat": 63.5203484,
			"lng": 22.5325856
		},
		"name": "bangatan 13",
		"postcode": "66900"
	},
	{
		"location": {
			"lat": 63.5066243,
			"lng": 22.7504642
		},
		"name": "markbyvägen",
		"postcode": "66930"
	},
	{
		"location": {
			"lat": 63.5066243,
			"lng": 22.7504642
		},
		"name": "markbyvägen",
		"postcode": "66930"
	},
	{
		"location": {
			"lat": 63.5232185,
			"lng": 22.5351454
		},
		"name": "borgaregatan 13",
		"postcode": "66900"
	},
	{
		"location": {
			"lat": 63.5217598,
			"lng": 22.5303558
		},
		"name": "jeansborgsgatan",
		"postcode": "66900"
	},
	{
		"location": {
			"lat": 63.52360239999999,
			"lng": 22.5238262
		},
		"name": "seminariegatan 3",
		"postcode": "66900"
	},
	{
		"location": {
			"lat": 63.5203776,
			"lng": 22.5366245
		},
		"name": "mathesiusgatan 1",
		"postcode": "66900"
	},
	{
		"location": {
			"lat": 63.49542,
			"lng": 22.5004978
		},
		"name": "bonskogsvägen",
		"postcode": "66900"
	},
	{
		"location": {
			"lat": 63.52160910000001,
			"lng": 22.5310537
		},
		"name": "sollefteågatan 11",
		"postcode": "66900"
	},
	{
		"location": {
			"lat": 63.52387220000001,
			"lng": 22.5286148
		},
		"name": "borgaregatan 1",
		"postcode": "66900"
	},
	{
		"location": {
			"lat": 63.5251115,
			"lng": 22.5420112
		},
		"name": "källbackgatan 82",
		"postcode": "66900"
	},
	{
		"location": {
			"lat": 63.5226222,
			"lng": 22.5300525
		},
		"name": "bankgatan 5",
		"postcode": "66900"
	},
	{
		"location": {
			"lat": 63.52180139999999,
			"lng": 22.530978
		},
		"name": "sollefteågatan 8",
		"postcode": "66900"
	},
	{
		"location": {
			"lat": 63.52169910000001,
			"lng": 22.5299288
		},
		"name": "sollefteågatan 9",
		"postcode": "66900"
	},
	{
		"location": {
			"lat": 63.52072399999999,
			"lng": 22.5216564
		},
		"name": "juthasvägen 6",
		"postcode": "66900"
	},
	{
		"location": {
			"lat": 63.5250216,
			"lng": 22.5325996
		},
		"name": "topeliusesplanaden 31",
		"postcode": "66900"
	},
	{
		"location": {
			"lat": 62.2375753,
			"lng": 21.509208
		},
		"name": "riksväg åtta",
		"postcode": "66930"
	},
	{
		"location": {
			"lat": 62.2375753,
			"lng": 21.509208
		},
		"name": "riksväg åtta",
		"postcode": "66930"
	},
	{
		"location": {
			"lat": 63.41953090000001,
			"lng": 22.6184593
		},
		"name": "kyrkvägen",
		"postcode": "66850"
	},
	{
		"location": {
			"lat": 63.5223428,
			"lng": 22.5326767
		},
		"name": "bankgatan 11",
		"postcode": "66900"
	},
	{
		"location": {
			"lat": 63.52520699999999,
			"lng": 22.5228164
		},
		"name": "mellangatan 11",
		"postcode": "66900"
	},
	{
		"location": {
			"lat": 63.5223333,
			"lng": 22.5346757
		},
		"name": "bankgatan 16",
		"postcode": "66900"
	},
	{
		"location": {
			"lat": 63.5248529,
			"lng": 22.5297425
		},
		"name": "lybecksgatan 3",
		"postcode": "66900"
	},
	{
		"location": {
			"lat": 63.5272748,
			"lng": 22.5355389
		},
		"name": "gustav adolfsgatan 45",
		"postcode": "66900"
	},
	{
		"location": {
			"lat": 63.5204202,
			"lng": 22.5337339
		},
		"name": "bangatan 12",
		"postcode": "66900"
	},
	{
		"location": {
			"lat": 63.5255153,
			"lng": 22.534709
		},
		"name": "gustav adolfsgatan 33",
		"postcode": "66900"
	},
	{
		"location": {
			"lat": 63.525279,
			"lng": 22.5341853
		},
		"name": "gustav adolfsgatan 32",
		"postcode": "66900"
	},
	{
		"location": {
			"lat": 63.52216430000001,
			"lng": 22.5331467
		},
		"name": "gustav adolfsgatan 13",
		"postcode": "66900"
	},
	{
		"location": {
			"lat": 63.52082290000001,
			"lng": 22.5342941
		},
		"name": "karleborgsgatan 6",
		"postcode": "66900"
	},
	{
		"location": {
			"lat": 63.5247044,
			"lng": 22.5343269
		},
		"name": "gustav adolfsgatan 29",
		"postcode": "66900"
	},
	{
		"location": {
			"lat": 63.5238556,
			"lng": 22.5278487
		},
		"name": "kyrkogatan 44",
		"postcode": "66900"
	},
	{
		"location": {
			"lat": 63.5233147,
			"lng": 22.533704
		},
		"name": "gustav adolfsgatan 21",
		"postcode": "66900"
	},
	{
		"location": {
			"lat": 63.5236013,
			"lng": 22.5234225
		},
		"name": "seminariegatan 12",
		"postcode": "66900"
	},
	{
		"location": {
			"lat": 63.5238556,
			"lng": 22.5278487
		},
		"name": "kyrkogatan 58",
		"postcode": "66900"
	},
	{
		"location": {
			"lat": 63.52365390000001,
			"lng": 22.5334489
		},
		"name": "gustav adolfsgatan 22",
		"postcode": "66900"
	},
	{
		"location": {
			"lat": 63.52455639999999,
			"lng": 22.5360455
		},
		"name": "karleborgsgatan 30",
		"postcode": "66900"
	},
	{
		"location": {
			"lat": 63.5219304,
			"lng": 22.5377268
		},
		"name": "bankgatan 24",
		"postcode": "66900"
	},
	{
		"location": {
			"lat": 63.5231788,
			"lng": 22.5375432
		},
		"name": "borgaregatan 22",
		"postcode": "66900"
	},
	{
		"location": {
			"lat": 63.5268712,
			"lng": 22.5361055
		},
		"name": "fiskaregränd 4",
		"postcode": "66900"
	},
	{
		"location": {
			"lat": 63.5229198,
			"lng": 22.5402938
		},
		"name": "borgaregatan 30",
		"postcode": "66900"
	},
	{
		"location": {
			"lat": 63.5221841,
			"lng": 22.5371269
		},
		"name": "mathesiusgatan 10",
		"postcode": "66900"
	},
	{
		"location": {
			"lat": 63.5232044,
			"lng": 22.5409841
		},
		"name": "bockmöllergatan 17",
		"postcode": "66900"
	},
	{
		"location": {
			"lat": 63.5203152,
			"lng": 22.5322129
		},
		"name": "gustav adolfsgatan 3",
		"postcode": "66900"
	},
	{
		"location": {
			"lat": 63.5239329,
			"lng": 22.5358161
		},
		"name": "karleborgsgatan 26",
		"postcode": "66900"
	},
	{
		"location": {
			"lat": 63.52125919999999,
			"lng": 22.5385923
		},
		"name": "karlmansgatan 5",
		"postcode": "66900"
	},
	{
		"location": {
			"lat": 63.52313299999999,
			"lng": 22.5275323
		},
		"name": "kyrkogatan 8",
		"postcode": "66900"
	},
	{
		"location": {
			"lat": 63.52503479999999,
			"lng": 22.5375819
		},
		"name": "källbackgatan 9",
		"postcode": "66900"
	},
	{
		"location": {
			"lat": 63.52479520000001,
			"lng": 22.5387696
		},
		"name": "mathesiusgatan 19",
		"postcode": "66900"
	},
	{
		"location": {
			"lat": 63.5255995,
			"lng": 22.5224772
		},
		"name": "residensgatan 6",
		"postcode": "66900"
	},
	{
		"location": {
			"lat": 63.5225792,
			"lng": 22.5235906
		},
		"name": "seminariegatan 4",
		"postcode": "66900"
	},
	{
		"location": {
			"lat": 63.5217301,
			"lng": 22.5316525
		},
		"name": "sollefteågatan 10",
		"postcode": "66900"
	},
	{
		"location": {
			"lat": 63.52185530000001,
			"lng": 22.5375489
		},
		"name": "bankgatan 25",
		"postcode": "66900"
	},
	{
		"location": {
			"lat": 63.5245433,
			"lng": 22.528622
		},
		"name": "kyrkogatan 11",
		"postcode": "66900"
	},
	{
		"location": {
			"lat": 63.52777949999999,
			"lng": 22.5334864
		},
		"name": "jakobstadsvägen 7",
		"postcode": "66910"
	},
	{
		"location": {
			"lat": 63.5203521,
			"lng": 22.5318198
		},
		"name": "gustav adolfsgatan 4",
		"postcode": "66900"
	},
	{
		"location": {
			"lat": 63.52777949999999,
			"lng": 22.5334864
		},
		"name": "jakobstadsvägen 7",
		"postcode": "66910"
	},
	{
		"location": {
			"lat": 63.5218971,
			"lng": 22.5269123
		},
		"name": "kyrkogatan 4",
		"postcode": "66900"
	},
	{
		"location": {
			"lat": 63.5299886,
			"lng": 22.5364176
		},
		"name": "jakobstadsvägen 22",
		"postcode": "66910"
	},
	{
		"location": {
			"lat": 63.5299886,
			"lng": 22.5364176
		},
		"name": "jakobstadsvägen 22",
		"postcode": "66910"
	},
	{
		"location": {
			"lat": 63.5275182,
			"lng": 22.5455552
		},
		"name": "fabriksgatan 9",
		"postcode": "66900"
	},
	{
		"location": {
			"lat": 63.5239452,
			"lng": 22.5296749
		},
		"name": "borgaregatan 4",
		"postcode": "66900"
	},
	{
		"location": {
			"lat": 63.5241757,
			"lng": 22.5284505
		},
		"name": "kyrkogatan 9",
		"postcode": "66900"
	},
	{
		"location": {
			"lat": 63.5214057,
			"lng": 22.542593
		},
		"name": "kovjokivägen 1",
		"postcode": "66900"
	},
	{
		"location": {
			"lat": 63.4080774,
			"lng": 22.6523932
		},
		"name": "stationsvägen",
		"postcode": "66850"
	},
	{
		"location": {
			"lat": 63.5650944,
			"lng": 22.5503492
		},
		"name": "rijfs väg",
		"postcode": "66910"
	},
	{
		"location": {
			"lat": 63.5237259,
			"lng": 22.5282357
		},
		"name": "kyrkogatan 7",
		"postcode": "66900"
	},
	{
		"location": {
			"lat": 63.5244798,
			"lng": 22.5314746
		},
		"name": "topeliusesplanaden 24",
		"postcode": "66900"
	},
	{
		"location": {
			"lat": 63.4970027,
			"lng": 22.6559018
		},
		"name": "sorvistvägen",
		"postcode": "66900"
	},
	{
		"location": {
			"lat": 63.52152570000001,
			"lng": 22.541948
		},
		"name": "bankgatan 34",
		"postcode": "66900"
	},
	{
		"location": {
			"lat": 63.5226843,
			"lng": 22.5329936
		},
		"name": "gustav adolfsgatan 18",
		"postcode": "66900"
	},
	{
		"location": {
			"lat": 63.5240473,
			"lng": 22.5286997
		},
		"name": "borgaregatan 2",
		"postcode": "66900"
	},
	{
		"location": {
			"lat": 63.5213446,
			"lng": 22.5327225
		},
		"name": "gustav adolfsgatan 9",
		"postcode": "66900"
	},
	{
		"location": {
			"lat": 63.52527689999999,
			"lng": 22.5369642
		},
		"name": "källbackgatan 8",
		"postcode": "66900"
	},
	{
		"location": {
			"lat": 63.5251434,
			"lng": 22.5383668
		},
		"name": "källbackgatan 12",
		"postcode": "66900"
	},
	{
		"location": {
			"lat": 63.5238519,
			"lng": 22.5278865
		},
		"name": "kyrkogatan 12",
		"postcode": "66900"
	},
	{
		"location": {
			"lat": 63.52529850000001,
			"lng": 22.5324888
		},
		"name": "topeliusesplanaden 25",
		"postcode": "66900"
	},
	{
		"location": {
			"lat": 63.5252101,
			"lng": 22.5376656
		},
		"name": "källbackgatan 10",
		"postcode": "66900"
	},
	{
		"location": {
			"lat": 63.5254237,
			"lng": 22.5364653
		},
		"name": "karleborgsgatan 34",
		"postcode": "66900"
	},
	{
		"location": {
			"lat": 63.52102180000001,
			"lng": 22.529587
		},
		"name": "topeliusesplanaden 4",
		"postcode": "66900"
	},
	{
		"location": {
			"lat": 63.52139949999999,
			"lng": 22.5224406
		},
		"name": "juthasvägen 7",
		"postcode": "66900"
	},
	{
		"location": {
			"lat": 63.52676830000001,
			"lng": 22.5349051
		},
		"name": "gustav adolfsgatan 42",
		"postcode": "66900"
	},
	{
		"location": {
			"lat": 63.52449429999999,
			"lng": 22.5313488
		},
		"name": "topeliusesplanaden 16",
		"postcode": "66900"
	},
	{
		"location": {
			"lat": 63.5211648,
			"lng": 22.5322224
		},
		"name": "gustav adolfsgatan 10",
		"postcode": "66900"
	},
	{
		"location": {
			"lat": 63.52466440000001,
			"lng": 22.5338978
		},
		"name": "gustav adolfsgatan 28",
		"postcode": "66900"
	},
	{
		"location": {
			"lat": 63.5209942,
			"lng": 22.5325493
		},
		"name": "gustav adolfsgatan 7",
		"postcode": "66900"
	},
	{
		"location": {
			"lat": 63.5245032,
			"lng": 22.5321198
		},
		"name": "topeliusesplanaden 21",
		"postcode": "66900"
	},
	{
		"location": {
			"lat": 63.5277916,
			"lng": 22.5330792
		},
		"name": "jakobstadsvägen 6",
		"postcode": "66910"
	},
	{
		"location": {
			"lat": 63.5277916,
			"lng": 22.5330792
		},
		"name": "jakobstadsvägen 6",
		"postcode": "66910"
	},
	{
		"location": {
			"lat": 63.52373979999999,
			"lng": 22.5221668
		},
		"name": "mellangatan 1",
		"postcode": "66900"
	},
	{
		"location": {
			"lat": 63.52004090000001,
			"lng": 22.5316655
		},
		"name": "gustav adolfsgatan 2",
		"postcode": "66900"
	},
	{
		"location": {
			"lat": 63.5230543,
			"lng": 22.5237741
		},
		"name": "seminariegatan 1",
		"postcode": "66900"
	},
	{
		"location": {
			"lat": 63.5215507,
			"lng": 22.5298476
		},
		"name": "topeliusesplanaden 6",
		"postcode": "66900"
	},
	{
		"location": {
			"lat": 63.5218149,
			"lng": 22.5286893
		},
		"name": "sollefteågatan 7",
		"postcode": "66900"
	},
	{
		"location": {
			"lat": 63.52269310000001,
			"lng": 22.5509382
		},
		"name": "arbetaregatan 1",
		"postcode": "66900"
	},
	{
		"location": {
			"lat": 63.5241189,
			"lng": 22.5363106
		},
		"name": "karleborgsgatan 15",
		"postcode": "66900"
	},
	{
		"location": {
			"lat": 63.5224679,
			"lng": 22.533274
		},
		"name": "bankgatan 14",
		"postcode": "66900"
	},
	{
		"location": {
			"lat": 63.52418969999999,
			"lng": 22.5359264
		},
		"name": "karleborgsgatan 28",
		"postcode": "66900"
	},
	{
		"location": {
			"lat": 63.5209018,
			"lng": 22.5320923
		},
		"name": "gustav adolfsgatan 8",
		"postcode": "66900"
	},
	{
		"location": {
			"lat": 63.5230468,
			"lng": 22.5335766
		},
		"name": "gustav adolfsgatan 19",
		"postcode": "66900"
	},
	{
		"location": {
			"lat": 63.5223737,
			"lng": 22.5310791
		},
		"name": "topeliusesplanaden 9",
		"postcode": "66900"
	},
	{
		"location": {
			"lat": 63.5198641,
			"lng": 22.5342084
		},
		"name": "karleborgsgatan 1",
		"postcode": "66900"
	},
	{
		"location": {
			"lat": 63.5231872,
			"lng": 22.5279703
		},
		"name": "kyrkogatan 5",
		"postcode": "66900"
	},
	{
		"location": {
			"lat": 63.5207736,
			"lng": 22.5173151
		},
		"name": "idrottsgatan 7",
		"postcode": "66900"
	},
	{
		"location": {
			"lat": 63.5175827,
			"lng": 22.5271513
		},
		"name": "joupersgatan 2",
		"postcode": "66900"
	},
	{
		"location": {
			"lat": 63.52146810000001,
			"lng": 22.5306678
		},
		"name": "topeliusesplanaden 5",
		"postcode": "66900"
	},
	{
		"location": {
			"lat": 63.5238156,
			"lng": 22.5317698
		},
		"name": "topeliusesplanaden 17",
		"postcode": "66900"
	},
	{
		"location": {
			"lat": 63.5221001,
			"lng": 22.5262244
		},
		"name": "sollefteågatan 1",
		"postcode": "66900"
	},
	{
		"location": {
			"lat": 63.5214478,
			"lng": 22.5344475
		},
		"name": "sollefteågatan 18",
		"postcode": "66900"
	},
	{
		"location": {
			"lat": 63.5253415,
			"lng": 22.5362629
		},
		"name": "källbackgatan 6",
		"postcode": "66900"
	},
	{
		"location": {
			"lat": 63.52321939999999,
			"lng": 22.5332481
		},
		"name": "gustav adolfsgatan 20",
		"postcode": "66900"
	},
	{
		"location": {
			"lat": 63.52535709999999,
			"lng": 22.5291207
		},
		"name": "lybecksgatan 2",
		"postcode": "66900"
	},
	{
		"location": {
			"lat": 63.52561489999999,
			"lng": 22.5343467
		},
		"name": "gustav adolfsgatan 34",
		"postcode": "66900"
	},
	{
		"location": {
			"lat": 63.5288513,
			"lng": 22.5358273
		},
		"name": "jöns drakes väg 21",
		"postcode": "66900"
	},
	{
		"location": {
			"lat": 63.5259592,
			"lng": 22.5358335
		},
		"name": "grev tott gatan 7",
		"postcode": "66900"
	},
	{
		"location": {
			"lat": 63.5257491,
			"lng": 22.5370371
		},
		"name": "karleborgsgatan 23",
		"postcode": "66900"
	},
	{
		"location": {
			"lat": 63.3920888,
			"lng": 22.3678168
		},
		"name": "träskvägen",
		"postcode": "66980"
	},
	{
		"location": {
			"lat": 63.5239973,
			"lng": 22.5335999
		},
		"name": "gustav adolfsgatan 24",
		"postcode": "66900"
	},
	{
		"location": {
			"lat": 63.5157136,
			"lng": 22.540447
		},
		"name": "södra ringvägen",
		"postcode": "66900"
	},
	{
		"location": {
			"lat": 63.5152071,
			"lng": 22.5345699
		},
		"name": "rajåkersgränden",
		"postcode": "66900"
	},
	{
		"location": {
			"lat": 63.5156053,
			"lng": 22.5328651
		},
		"name": "rajåkersstigen",
		"postcode": "66900"
	},
	{
		"location": {
			"lat": 63.521946,
			"lng": 22.5308876
		},
		"name": "solliden",
		"postcode": "66900"
	},
	{
		"location": {
			"lat": 63.52432400000001,
			"lng": 22.5177611
		},
		"name": "skogsgatan 4",
		"postcode": "66900"
	},
	{
		"location": {
			"lat": 63.4740966,
			"lng": 22.5400481
		},
		"name": "haraldsrundan",
		"postcode": "66900"
	},
	{
		"location": {
			"lat": 63.5225874,
			"lng": 22.5471876
		},
		"name": "kvarnvägen 2",
		"postcode": "66900"
	},
	{
		"location": {
			"lat": 63.42044959999999,
			"lng": 22.3940431
		},
		"name": "hirvlaxvägen",
		"postcode": "66970"
	},
	{
		"location": {
			"lat": 63.42044959999999,
			"lng": 22.3940431
		},
		"name": "hirvlaxvägen",
		"postcode": "66970"
	},
	{
		"location": {
			"lat": 63.61204689999999,
			"lng": 22.4921221
		},
		"name": "grisselören 1",
		"postcode": "66910"
	},
	{
		"location": {
			"lat": 63.5285805,
			"lng": 22.5455788
		},
		"name": "fabriksgatan 27",
		"postcode": "66900"
	},
	{
		"location": {
			"lat": 63.5248934,
			"lng": 22.5289806
		},
		"name": "kyrkogatan 71",
		"postcode": "66900"
	},
	{
		"location": {
			"lat": 63.5206944,
			"lng": 22.5291949
		},
		"name": "bangatan 5",
		"postcode": "66900"
	},
	{
		"location": {
			"lat": 63.5244798,
			"lng": 22.5314746
		},
		"name": "topeliusesplanaden 20",
		"postcode": "66900"
	},
	{
		"location": {
			"lat": 63.525761,
			"lng": 22.5348299
		},
		"name": "gustav adolfsgatan 35",
		"postcode": "66900"
	},
	{
		"location": {
			"lat": 63.52699089999999,
			"lng": 22.5354161
		},
		"name": "gustav adolfsgatan 43",
		"postcode": "66900"
	}
]